
{"meta":{"code":200},"notifications":[{"type":"notificationTray","item":{"unreadCount":1}}],"response":{"venues":[{"id":"4b8824e8f964a520d3e231e3","name":"Sears","contact":{"phone":"2014205300","formattedPhone":"(201) 420-5300","twitter":"sears"},"location":{"address":"50 Mall Dr W","crossStreet":"Newport Centre Mall","lat":40.72801977797562,"lng":-74.03805351664538,"distance":4476,"postalCode":"07310","cc":"US","city":"Jersey City","state":"NJ","country":"United States"},"categories":[{"id":"4bf58dd8d48988d1f6941735","name":"Department Store","pluralName":"Department Stores","shortName":"Department Store","icon":{"prefix":"https:\/\/ss1.4sqi.net\/img\/categories_v2\/shops\/departmentstore_","suffix":".png"},"primary":true}],"verified":true,"stats":{"checkinsCount":1184,"usersCount":745,"tipCount":6},"url":"http:\/\/bit.ly\/Sears4sq","specials":{"count":0,"items":[]},"hereNow":{"count":0,"summary":"0 people here","groups":[]},"storeId":"1044","referralId":"v-1402168742"},{"id":"4f248a8de4b012e02f4952b3","name":"Sears","contact":{},"location":{"lat":40.731555559806615,"lng":-74.03448476232298,"distance":4561,"postalCode":"10011","cc":"US","city":"New York","state":"NJ","country":"United States"},"categories":[{"id":"4bf58dd8d48988d124951735","name":"Automotive Shop","pluralName":"Automotive Shops","shortName":"Automotive","icon":{"prefix":"https:\/\/ss1.4sqi.net\/img\/categories_v2\/shops\/automotive_","suffix":".png"},"primary":true}],"verified":false,"stats":{"checkinsCount":4,"usersCount":4,"tipCount":0},"specials":{"count":0,"items":[]},"hereNow":{"count":0,"summary":"0 people here","groups":[]},"referralId":"v-1402168742"},{"id":"4b37c6a3f964a520f44525e3","name":"Sears","contact":{"phone":"7188265800","formattedPhone":"(718) 826-5800","twitter":"sears"},"location":{"address":"2307 Beverley Rd","crossStreet":"Btwn Flatbush & Bedford Ave","lat":40.64554765158292,"lng":-73.95553055172638,"distance":7130,"postalCode":"11226","cc":"US","city":"Brooklyn","state":"NY","country":"United States"},"categories":[{"id":"4bf58dd8d48988d122951735","name":"Electronics Store","pluralName":"Electronics Stores","shortName":"Electronics","icon":{"prefix":"https:\/\/ss1.4sqi.net\/img\/categories_v2\/shops\/technology_","suffix":".png"},"primary":true}],"verified":true,"stats":{"checkinsCount":934,"usersCount":533,"tipCount":7},"url":"http:\/\/bit.ly\/sears4sq","specials":{"count":0,"items":[]},"hereNow":{"count":0,"summary":"0 people here","groups":[]},"storeId":"1114","referralId":"v-1402168742"},{"id":"4ab69928f964a5200d7820e3","name":"Sears","contact":{"phone":"7188305900","formattedPhone":"(718) 830-5900","twitter":"sears"},"location":{"address":"9605 Queens Blvd","crossStreet":"at 63rd Dr","lat":40.73090026978866,"lng":-73.86260700273537,"distance":12092,"postalCode":"11374","cc":"US","city":"Rego Park","state":"NY","country":"United States"},"categories":[{"id":"4bf58dd8d48988d122951735","name":"Electronics Store","pluralName":"Electronics Stores","shortName":"Electronics","icon":{"prefix":"https:\/\/ss1.4sqi.net\/img\/categories_v2\/shops\/technology_","suffix":".png"},"primary":true}],"verified":true,"stats":{"checkinsCount":2305,"usersCount":1165,"tipCount":11},"url":"http:\/\/bit.ly\/Sears4sq","specials":{"count":0,"items":[]},"hereNow":{"count":0,"summary":"0 people here","groups":[]},"storeId":"1544","referralId":"v-1402168742"},{"id":"4b4fb832f964a520711227e3","name":"Sears","contact":{"phone":"7186772100","formattedPhone":"(718) 677-2100","twitter":"sears"},"location":{"address":"5200 Kings Plz","crossStreet":"Ave U and Flatbush Ave","lat":40.609883,"lng":-73.922406,"distance":11982,"postalCode":"11234","cc":"US","city":"Brooklyn","state":"NY","country":"United States"},"categories":[{"id":"4bf58dd8d48988d122951735","name":"Electronics Store","pluralName":"Electronics Stores","shortName":"Electronics","icon":{"prefix":"https:\/\/ss1.4sqi.net\/img\/categories_v2\/shops\/technology_","suffix":".png"},"primary":true}],"verified":true,"stats":{"checkinsCount":977,"usersCount":467,"tipCount":8},"url":"http:\/\/bit.ly\/Sears4sq","specials":{"count":0,"items":[]},"hereNow":{"count":0,"summary":"0 people here","groups":[]},"storeId":"1143","referralId":"v-1402168742"},{"id":"4bc77db714d79521827c67e9","name":"Sears Auto Center","contact":{"phone":"2014205395","formattedPhone":"(201) 420-5395","twitter":"searsauto"},"location":{"address":"50 Mall Dr W","lat":40.727061,"lng":-74.038749,"distance":4445,"postalCode":"07310","cc":"US","city":"Jersey City","state":"NJ","country":"United States"},"categories":[{"id":"4eb1c1623b7b52c0e1adc2ec","name":"Car Dealership","pluralName":"Car Dealerships","shortName":"Car Dealer","icon":{"prefix":"https:\/\/ss1.4sqi.net\/img\/categories_v2\/shops\/automotive_","suffix":".png"},"primary":true}],"verified":true,"stats":{"checkinsCount":273,"usersCount":194,"tipCount":0},"url":"http:\/\/t.co\/ckTNI9ym6m","specials":{"count":0,"items":[]},"hereNow":{"count":0,"summary":"0 people here","groups":[]},"storeId":"6073","referralId":"v-1402168742"},{"id":"4c03e9e9310fc9b66783c661","name":"Sears Hearing Aid Center","contact":{"phone":"2016101083","formattedPhone":"(201) 610-1083","twitter":"sears"},"location":{"address":"50 Mall Dr W Newport Centre Mall","crossStreet":"Willowbrook Mall","lat":40.727159,"lng":-74.038733,"distance":4452,"postalCode":"07310","cc":"US","city":"Jersey City","state":"NJ","country":"United States"},"categories":[{"id":"4bf58dd8d48988d177941735","name":"Doctor's Office","pluralName":"Doctor's Offices","shortName":"Doctor's Office","icon":{"prefix":"https:\/\/ss1.4sqi.net\/img\/categories_v2\/building\/medical_doctorsoffice_","suffix":".png"},"primary":true}],"verified":true,"stats":{"checkinsCount":1025,"usersCount":625,"tipCount":6},"url":"http:\/\/miracle-ear-jerseycity.com","specials":{"count":0,"items":[]},"hereNow":{"count":0,"summary":"0 people here","groups":[]},"storeId":"1434","referralId":"v-1402168742"},{"id":"50a2d325e4b0b185a8e3c5b0","name":"Sears Holdings Design Center","contact":{"phone":"2127752500","formattedPhone":"(212) 775-2500"},"location":{"address":"75 Varick St","crossStreet":"Watts","lat":40.723191114439295,"lng":-74.00699967240043,"distance":2648,"postalCode":"10013","cc":"US","city":"New York","state":"NY","country":"United States"},"categories":[{"id":"4bf58dd8d48988d1f4941735","name":"Design Studio","pluralName":"Design Studios","shortName":"Design","icon":{"prefix":"https:\/\/ss1.4sqi.net\/img\/categories_v2\/shops\/design_","suffix":".png"},"primary":true}],"verified":false,"stats":{"checkinsCount":54,"usersCount":9,"tipCount":0},"specials":{"count":0,"items":[]},"hereNow":{"count":0,"summary":"0 people here","groups":[]},"referralId":"v-1402168742"},{"id":"4c4481d6f799e21e42e6ada2","name":"Sears Apparel Holding","contact":{},"location":{"address":"75 Varick St","crossStreet":"Watts St.","lat":40.723128421295144,"lng":-74.0063167982994,"distance":2629,"postalCode":"10013","cc":"US","city":"New York","state":"NY","country":"United States"},"categories":[{"id":"4bf58dd8d48988d103951735","name":"Clothing Store","pluralName":"Clothing Stores","shortName":"Apparel","icon":{"prefix":"https:\/\/ss1.4sqi.net\/img\/categories_v2\/shops\/apparel_","suffix":".png"},"primary":true}],"verified":false,"stats":{"checkinsCount":115,"usersCount":29,"tipCount":0},"specials":{"count":0,"items":[]},"hereNow":{"count":0,"summary":"0 people here","groups":[]},"referralId":"v-1402168742"},{"id":"4d8cb9721d06b1f7a4901f3b","name":"Sears Optical","contact":{},"location":{"lat":40.72776235248025,"lng":-74.03664208805144,"distance":4371,"postalCode":"07310","cc":"US","city":"Jersey City","state":"NJ","country":"United States"},"categories":[{"id":"4d954afda243a5684865b473","name":"Optical Shop","pluralName":"Optical Shops","shortName":"Optical","icon":{"prefix":"https:\/\/ss1.4sqi.net\/img\/categories_v2\/building\/medical_opticalshop_","suffix":".png"},"primary":true}],"verified":false,"stats":{"checkinsCount":15,"usersCount":12,"tipCount":0},"specials":{"count":0,"items":[]},"hereNow":{"count":0,"summary":"0 people here","groups":[]},"referralId":"v-1402168742"},{"id":"4f248cdfe4b04b552594a37e","name":"Sears Auto Center","contact":{"phone":"7183706245","formattedPhone":"(718) 370-6245"},"location":{"address":"283 Platinum Ave","lat":40.739984,"lng":-73.995278,"distance":4468,"postalCode":"10314","cc":"US","city":"Staten Island","state":"NY","country":"United States"},"categories":[{"id":"4bf58dd8d48988d124951735","name":"Automotive Shop","pluralName":"Automotive Shops","shortName":"Automotive","icon":{"prefix":"https:\/\/ss1.4sqi.net\/img\/categories_v2\/shops\/automotive_","suffix":".png"},"primary":true}],"verified":false,"stats":{"checkinsCount":1,"usersCount":1,"tipCount":0},"specials":{"count":0,"items":[]},"hereNow":{"count":0,"summary":"0 people here","groups":[]},"referralId":"v-1402168742"},{"id":"4ba3de67f964a5206f6838e3","name":"Sears Auto Center","contact":{"phone":"7189414321","formattedPhone":"(718) 941-4321","twitter":"searsauto"},"location":{"address":"2359 Bedford Ave","lat":40.64571,"lng":-73.95516,"distance":7131,"postalCode":"11226","cc":"US","city":"Brooklyn","state":"NY","country":"United States"},"categories":[{"id":"4eb1c1623b7b52c0e1adc2ec","name":"Car Dealership","pluralName":"Car Dealerships","shortName":"Car Dealer","icon":{"prefix":"https:\/\/ss1.4sqi.net\/img\/categories_v2\/shops\/automotive_","suffix":".png"},"primary":true}],"verified":true,"stats":{"checkinsCount":171,"usersCount":120,"tipCount":3},"url":"http:\/\/t.co\/ckTNI9ym6m","specials":{"count":0,"items":[]},"hereNow":{"count":0,"summary":"0 people here","groups":[]},"storeId":"6104","referralId":"v-1402168742"},{"id":"4c8abcd42e333704ae7cc641","name":"Sears Peyton Gallery","contact":{"phone":"2129667469","formattedPhone":"(212) 966-7469"},"location":{"address":"210 11th Ave, Rm 802","lat":40.74977204861364,"lng":-74.00592084497305,"distance":5563,"postalCode":"10001","cc":"US","city":"New York","state":"NY","country":"United States"},"categories":[{"id":"4bf58dd8d48988d1e2931735","name":"Art Gallery","pluralName":"Art Galleries","shortName":"Art Gallery","icon":{"prefix":"https:\/\/ss1.4sqi.net\/img\/categories_v2\/arts_entertainment\/artgallery_","suffix":".png"},"primary":true}],"verified":false,"stats":{"checkinsCount":22,"usersCount":22,"tipCount":0},"url":"http:\/\/www.searspeyton.com\/html\/home.asp","specials":{"count":0,"items":[]},"hereNow":{"count":0,"summary":"0 people here","groups":[]},"referralId":"v-1402168742"},{"id":"4ebbfed5cc2178857eb462e7","name":"Eric sears","contact":{},"location":{"address":"111 Broadway","lat":40.7046973,"lng":-74.0133824,"distance":1244,"postalCode":"10004","cc":"US","city":"Manhattan","state":"NY","country":"United States"},"categories":[{"id":"4bf58dd8d48988d127941735","name":"Conference Room","pluralName":"Conference Rooms","shortName":"Conference room","icon":{"prefix":"https:\/\/ss1.4sqi.net\/img\/categories_v2\/building\/office_conferenceroom_","suffix":".png"},"primary":true}],"verified":false,"stats":{"checkinsCount":1,"usersCount":1,"tipCount":0},"specials":{"count":0,"items":[]},"hereNow":{"count":0,"summary":"0 people here","groups":[]},"referralId":"v-1402168742"},{"id":"4e024253d1647696f12605d8","name":"Sears Portrait Studio","contact":{},"location":{"lat":40.64513905110539,"lng":-73.95559943128856,"distance":7165,"postalCode":"11226","cc":"US","city":"Brooklyn","state":"NY","country":"United States"},"categories":[],"verified":false,"stats":{"checkinsCount":21,"usersCount":20,"tipCount":0},"specials":{"count":0,"items":[]},"hereNow":{"count":0,"summary":"0 people here","groups":[]},"referralId":"v-1402168742"},{"id":"5075a275b0eda62637a9042c","name":"Sears At Times Square","contact":{},"location":{"address":"7 Avenue A","crossStreet":"W 44th St.","lat":40.75709126774661,"lng":-73.98605346679688,"distance":6463,"postalCode":"10009","cc":"US","city":"New York","state":"NY","country":"United States"},"categories":[{"id":"4bf58dd8d48988d103951735","name":"Clothing Store","pluralName":"Clothing Stores","shortName":"Apparel","icon":{"prefix":"https:\/\/ss1.4sqi.net\/img\/categories_v2\/shops\/apparel_","suffix":".png"},"primary":true}],"verified":false,"stats":{"checkinsCount":12,"usersCount":12,"tipCount":2},"specials":{"count":0,"items":[]},"hereNow":{"count":0,"summary":"0 people here","groups":[]},"referralId":"v-1402168742"},{"id":"4bb3b551eb3e9521c086cb0a","name":"Sears","contact":{"phone":"7183706200","formattedPhone":"(718) 370-6200","twitter":"sears"},"location":{"address":"283 Platinum Ave","crossStreet":"Richmond ave","lat":40.580537936327886,"lng":-74.16646654741783,"distance":19353,"postalCode":"10314","cc":"US","city":"Staten Island","state":"NY","country":"United States"},"categories":[{"id":"4bf58dd8d48988d1f6941735","name":"Department Store","pluralName":"Department Stores","shortName":"Department Store","icon":{"prefix":"https:\/\/ss1.4sqi.net\/img\/categories_v2\/shops\/departmentstore_","suffix":".png"},"primary":true}],"verified":true,"stats":{"checkinsCount":1454,"usersCount":630,"tipCount":2},"url":"http:\/\/bit.ly\/Sears4sq","specials":{"count":0,"items":[]},"hereNow":{"count":0,"summary":"0 people here","groups":[]},"storeId":"1624","referralId":"v-1402168742"},{"id":"4bd22b9741b9ef3b3586fde5","name":"Sears Auto Center","contact":{"phone":"7184767224","formattedPhone":"(718) 476-7224","twitter":"searsauto"},"location":{"address":"9020 Queens Blvd","lat":40.733688,"lng":-73.871749,"distance":11452,"postalCode":"11373","cc":"US","city":"Elmhurst","state":"NY","country":"United States"},"categories":[{"id":"4eb1c1623b7b52c0e1adc2ec","name":"Car Dealership","pluralName":"Car Dealerships","shortName":"Car Dealer","icon":{"prefix":"https:\/\/ss1.4sqi.net\/img\/categories_v2\/shops\/automotive_","suffix":".png"},"primary":true}],"verified":true,"stats":{"checkinsCount":238,"usersCount":155,"tipCount":1},"url":"http:\/\/t.co\/ckTNI9ym6m","specials":{"count":0,"items":[]},"hereNow":{"count":0,"summary":"0 people here","groups":[]},"storeId":"2622","referralId":"v-1402168742"},{"id":"4bd8ce262e6f0f47fdb30808","name":"Sears","contact":{"phone":"7188177300","formattedPhone":"(718) 817-7300","twitter":"sears"},"location":{"address":"404 E Fordham Rd","lat":40.861465346931624,"lng":-73.89142751239048,"distance":20169,"postalCode":"10458","cc":"US","city":"Bronx","state":"NY","country":"United States"},"categories":[{"id":"4bf58dd8d48988d1f6941735","name":"Department Store","pluralName":"Department Stores","shortName":"Department Store","icon":{"prefix":"https:\/\/ss1.4sqi.net\/img\/categories_v2\/shops\/departmentstore_","suffix":".png"},"primary":true}],"verified":true,"stats":{"checkinsCount":282,"usersCount":185,"tipCount":2},"url":"http:\/\/bit.ly\/Sears4sq","specials":{"count":0,"items":[]},"hereNow":{"count":0,"summary":"0 people here","groups":[]},"storeId":"2764","referralId":"v-1402168742"},{"id":"4bb61957f562ef3bcf9c2f97","name":"Sears","contact":{"phone":"2015255200","formattedPhone":"(201) 525-5200","twitter":"sears"},"location":{"address":"436 Main St","lat":40.892273,"lng":-74.039436,"distance":21660,"postalCode":"07601","cc":"US","city":"Hackensack","state":"NJ","country":"United States"},"categories":[{"id":"4bf58dd8d48988d122951735","name":"Electronics Store","pluralName":"Electronics Stores","shortName":"Electronics","icon":{"prefix":"https:\/\/ss1.4sqi.net\/img\/categories_v2\/shops\/technology_","suffix":".png"},"primary":true}],"verified":true,"stats":{"checkinsCount":800,"usersCount":477,"tipCount":3},"url":"http:\/\/bit.ly\/Sears4sq","specials":{"count":0,"items":[]},"hereNow":{"count":0,"summary":"0 people here","groups":[]},"storeId":"1094","referralId":"v-1402168742"},{"id":"4f86ff1ae4b0a7facace35b4","name":"Sears Hearing Aid Center","contact":{"phone":"7182524244","formattedPhone":"(718) 252-4244"},"location":{"address":"5200 Kings Plz","lat":40.609883,"lng":-73.922406,"distance":11982,"postalCode":"11234","cc":"US","city":"Brooklyn","state":"NY","country":"United States"},"categories":[{"id":"4bf58dd8d48988d177941735","name":"Doctor's Office","pluralName":"Doctor's Offices","shortName":"Doctor's Office","icon":{"prefix":"https:\/\/ss1.4sqi.net\/img\/categories_v2\/building\/medical_doctorsoffice_","suffix":".png"},"primary":true}],"verified":true,"stats":{"checkinsCount":0,"usersCount":0,"tipCount":0},"url":"http:\/\/miracle-ear-brooklyn.com","specials":{"count":0,"items":[]},"hereNow":{"count":0,"summary":"0 people here","groups":[]},"referralId":"v-1402168742"},{"id":"4c54a047f5f3d13afcf16efa","name":"Sears Auto Center","contact":{"phone":"7184632648","formattedPhone":"(718) 463-2648","twitter":"searsauto"},"location":{"address":"131-08 20th Ave","lat":40.781604,"lng":-73.837736,"distance":16426,"postalCode":"11356","cc":"US","city":"College Point","state":"NY","country":"United States"},"categories":[{"id":"4eb1c1623b7b52c0e1adc2ec","name":"Car Dealership","pluralName":"Car Dealerships","shortName":"Car Dealer","icon":{"prefix":"https:\/\/ss1.4sqi.net\/img\/categories_v2\/shops\/automotive_","suffix":".png"},"primary":true}],"verified":true,"stats":{"checkinsCount":149,"usersCount":86,"tipCount":2},"url":"http:\/\/t.co\/ckTNI9ym6m","specials":{"count":0,"items":[]},"hereNow":{"count":0,"summary":"0 people here","groups":[]},"storeId":"2626","referralId":"v-1402168742"},{"id":"4f70fa43e4b0e30fdd8a3fea","name":"Sears","contact":{},"location":{"lat":40.66300817743715,"lng":-73.71743578704282,"distance":24206,"postalCode":"11581","cc":"US","city":"Valley Stream","state":"NY","country":"United States"},"categories":[{"id":"4bf58dd8d48988d1f6941735","name":"Department Store","pluralName":"Department Stores","shortName":"Department Store","icon":{"prefix":"https:\/\/ss1.4sqi.net\/img\/categories_v2\/shops\/departmentstore_","suffix":".png"},"primary":true}],"verified":false,"stats":{"checkinsCount":375,"usersCount":195,"tipCount":1},"specials":{"count":0,"items":[]},"hereNow":{"count":0,"summary":"0 people here","groups":[]},"referralId":"v-1402168742"},{"id":"50abb83ce4b0e7772153bb75","name":"Sears","contact":{},"location":{"lat":40.89354642120397,"lng":-74.07036432862314,"distance":22346,"postalCode":"07607","cc":"US","city":"Maywood","state":"NJ","country":"United States"},"categories":[{"id":"4eb1bea83b7b6f98df247e06","name":"Factory","pluralName":"Factories","shortName":"Factory","icon":{"prefix":"https:\/\/ss1.4sqi.net\/img\/categories_v2\/building\/factory_","suffix":".png"},"primary":true}],"verified":false,"stats":{"checkinsCount":28,"usersCount":8,"tipCount":0},"specials":{"count":0,"items":[]},"hereNow":{"count":0,"summary":"0 people here","groups":[]},"referralId":"v-1402168742"},{"id":"4fbfe1f5e4b0e700fb29702e","name":"Sears Parts and Repair","contact":{},"location":{"address":"114-02","lat":40.78306378388916,"lng":-73.85324043094879,"distance":15450,"postalCode":"11356","cc":"US","city":"College Point","state":"NY","country":"United States"},"categories":[{"id":"4bf58dd8d48988d1f6941735","name":"Department Store","pluralName":"Department Stores","shortName":"Department Store","icon":{"prefix":"https:\/\/ss1.4sqi.net\/img\/categories_v2\/shops\/departmentstore_","suffix":".png"},"primary":true}],"verified":false,"stats":{"checkinsCount":8,"usersCount":7,"tipCount":0},"specials":{"count":0,"items":[]},"hereNow":{"count":0,"summary":"0 people here","groups":[]},"referralId":"v-1402168742"},{"id":"4c7296e08efc3704c747137d","name":"Sears Auto Center","contact":{"phone":"7183706245","formattedPhone":"(718) 370-6245","twitter":"searsauto"},"location":{"address":"283 Platinum Ave","lat":40.57933,"lng":-74.169169,"distance":19612,"postalCode":"10314","cc":"US","city":"Staten Island","state":"NY","country":"United States"},"categories":[{"id":"4eb1c1623b7b52c0e1adc2ec","name":"Car Dealership","pluralName":"Car Dealerships","shortName":"Car Dealer","icon":{"prefix":"https:\/\/ss1.4sqi.net\/img\/categories_v2\/shops\/automotive_","suffix":".png"},"primary":true}],"verified":true,"stats":{"checkinsCount":349,"usersCount":111,"tipCount":7},"url":"http:\/\/t.co\/ckTNI9ym6m","specials":{"count":0,"items":[]},"hereNow":{"count":1,"summary":"One person here","groups":[{"type":"others","name":"Other people here","count":1,"items":[]}]},"storeId":"6264","referralId":"v-1402168742"},{"id":"4c0bdf65340720a13cbe8893","name":"Sears","contact":{"phone":"5165745500","formattedPhone":"(516) 574-5500","twitter":"sears"},"location":{"address":"1400 Union Tpke","lat":40.75385,"lng":-73.69493,"distance":26424,"postalCode":"11040","cc":"US","city":"New Hyde Park","state":"NY","country":"United States"},"categories":[{"id":"4bf58dd8d48988d122951735","name":"Electronics Store","pluralName":"Electronics Stores","shortName":"Electronics","icon":{"prefix":"https:\/\/ss1.4sqi.net\/img\/categories_v2\/shops\/technology_","suffix":".png"},"primary":true}],"verified":true,"stats":{"checkinsCount":1182,"usersCount":540,"tipCount":5},"url":"http:\/\/bit.ly\/Sears4sq","specials":{"count":0,"items":[]},"hereNow":{"count":0,"summary":"0 people here","groups":[]},"storeId":"2933","referralId":"v-1402168742"},{"id":"50c68047e4b0f360f0f7b7e7","name":"Zipcar (Sears Parking Lot)","contact":{},"location":{"address":"62 Drive","crossStreet":"Junction BLVD","lat":40.73508891682783,"lng":-73.86458822531127,"distance":12074,"postalCode":"11374","cc":"US","city":"Rego Park","state":"NY","country":"United States"},"categories":[{"id":"4bf58dd8d48988d1ef941735","name":"Rental Car Location","pluralName":"Rental Car Locations","shortName":"Rental Car","icon":{"prefix":"https:\/\/ss1.4sqi.net\/img\/categories_v2\/shops\/airport_rentalcar_","suffix":".png"},"primary":true}],"verified":false,"stats":{"checkinsCount":15,"usersCount":10,"tipCount":0},"specials":{"count":0,"items":[]},"hereNow":{"count":0,"summary":"0 people here","groups":[]},"referralId":"v-1402168742"},{"id":"4e34716bc65b2313e28311c0","name":"Sears Auto","contact":{},"location":{"lat":40.78777313232422,"lng":-73.83179473876953,"distance":17225,"cc":"US","state":"New York","country":"United States"},"categories":[{"id":"4bf58dd8d48988d124951735","name":"Automotive Shop","pluralName":"Automotive Shops","shortName":"Automotive","icon":{"prefix":"https:\/\/ss1.4sqi.net\/img\/categories_v2\/shops\/automotive_","suffix":".png"},"primary":true}],"verified":false,"stats":{"checkinsCount":7,"usersCount":7,"tipCount":0},"specials":{"count":0,"items":[]},"hereNow":{"count":0,"summary":"0 people here","groups":[]},"referralId":"v-1402168742"},{"id":"4b6f20e0f964a520f5de2ce3","name":"Sears","contact":{"phone":"9143772100","formattedPhone":"(914) 377-2100","twitter":"sears"},"location":{"address":"843 Kimball Ave","crossStreet":"Cross County Mall","lat":40.92795093939106,"lng":-73.8512670993805,"distance":28300,"postalCode":"10704","cc":"US","city":"Yonkers","state":"NY","country":"United States"},"categories":[{"id":"4bf58dd8d48988d1f6941735","name":"Department Store","pluralName":"Department Stores","shortName":"Department Store","icon":{"prefix":"https:\/\/ss1.4sqi.net\/img\/categories_v2\/shops\/departmentstore_","suffix":".png"},"primary":true}],"verified":true,"stats":{"checkinsCount":2020,"usersCount":859,"tipCount":15},"url":"http:\/\/www.sears.com\/?sid=ISm21500224x000001","specials":{"count":0,"items":[]},"hereNow":{"count":0,"summary":"0 people here","groups":[]},"storeId":"1733","referralId":"v-1402168742"},{"id":"4be5bd27910020a15369d314","name":"Sears","contact":{"phone":"2019670300","formattedPhone":"(201) 967-0300","twitter":"sears"},"location":{"address":"585 From Rd","crossStreet":"Paramus Park Mall","lat":40.954435,"lng":-74.066724,"distance":28875,"postalCode":"07652","cc":"US","city":"Paramus","state":"NJ","country":"United States"},"categories":[{"id":"4bf58dd8d48988d1f6941735","name":"Department Store","pluralName":"Department Stores","shortName":"Department Store","icon":{"prefix":"https:\/\/ss1.4sqi.net\/img\/categories_v2\/shops\/departmentstore_","suffix":".png"},"primary":true}],"verified":true,"stats":{"checkinsCount":1508,"usersCount":791,"tipCount":8},"url":"http:\/\/bit.ly\/Sears4sq","specials":{"count":0,"items":[]},"hereNow":{"count":0,"summary":"0 people here","groups":[]},"storeId":"1664","referralId":"v-1402168742"},{"id":"4d07a247e350b60c937e9342","name":"Sears Auto Center","contact":{"phone":"7188177328","formattedPhone":"(718) 817-7328","twitter":"searsauto"},"location":{"address":"4720 3rd Ave","lat":40.859274,"lng":-73.891127,"distance":19964,"postalCode":"10458","cc":"US","city":"Bronx","state":"NY","country":"United States"},"categories":[{"id":"4eb1c1623b7b52c0e1adc2ec","name":"Car Dealership","pluralName":"Car Dealerships","shortName":"Car Dealer","icon":{"prefix":"https:\/\/ss1.4sqi.net\/img\/categories_v2\/shops\/automotive_","suffix":".png"},"primary":true}],"verified":true,"stats":{"checkinsCount":72,"usersCount":66,"tipCount":2},"url":"http:\/\/t.co\/ckTNI9ym6m","specials":{"count":0,"items":[]},"hereNow":{"count":0,"summary":"0 people here","groups":[]},"storeId":"6054","referralId":"v-1402168742"},{"id":"505a5039e4b08eeeedee9b13","name":"our sears","contact":{},"location":{"lat":40.81352996826172,"lng":-74.07545471191406,"distance":14149,"postalCode":"07073","cc":"US","city":"East Rutherford","state":"NJ","country":"United States"},"categories":[{"id":"4bf58dd8d48988d15f941735","name":"Field","pluralName":"Fields","shortName":"Field","icon":{"prefix":"https:\/\/ss1.4sqi.net\/img\/categories_v2\/parks_outdoors\/field_","suffix":".png"},"primary":true}],"verified":false,"stats":{"checkinsCount":1,"usersCount":1,"tipCount":0},"specials":{"count":0,"items":[]},"hereNow":{"count":0,"summary":"0 people here","groups":[]},"referralId":"v-1402168742"},{"id":"4c001332f61ea593d046eb13","name":"Sears","contact":{"phone":"7326025000","formattedPhone":"(732) 602-5000","twitter":"sears"},"location":{"address":"150 Woodbridge Ctr Ct","lat":40.557147855395996,"lng":-74.30099588854075,"distance":29992,"postalCode":"07095","cc":"US","city":"Woodbridge","state":"NJ","country":"United States"},"categories":[{"id":"4bf58dd8d48988d122951735","name":"Electronics Store","pluralName":"Electronics Stores","shortName":"Electronics","icon":{"prefix":"https:\/\/ss1.4sqi.net\/img\/categories_v2\/shops\/technology_","suffix":".png"},"primary":true}],"verified":true,"stats":{"checkinsCount":1764,"usersCount":877,"tipCount":5},"url":"http:\/\/bit.ly\/Sears4sq","specials":{"count":0,"items":[]},"hereNow":{"count":0,"summary":"0 people here","groups":[]},"storeId":"1684","referralId":"v-1402168742"},{"id":"4f1ed0eee4b0d98f4d15541c","name":"Sears Auto Center","contact":{},"location":{"crossStreet":"88 St 142 Ave","lat":40.670097,"lng":-73.773342,"distance":19420,"postalCode":"11434","cc":"US","city":"Miami","state":"NY","country":"United States"},"categories":[{"id":"4bf58dd8d48988d124951735","name":"Automotive Shop","pluralName":"Automotive Shops","shortName":"Automotive","icon":{"prefix":"https:\/\/ss1.4sqi.net\/img\/categories_v2\/shops\/automotive_","suffix":".png"},"primary":true}],"verified":false,"stats":{"checkinsCount":0,"usersCount":0,"tipCount":0},"specials":{"count":0,"items":[]},"hereNow":{"count":0,"summary":"0 people here","groups":[]},"referralId":"v-1402168742"},{"id":"4fb554e2e4b0378f48c44e36","name":"sears auto breakroom","contact":{},"location":{"address":"283 Platinum Ave","lat":40.57468697625796,"lng":-74.16830701572505,"distance":19918,"postalCode":"10314","cc":"US","city":"Staten Island","state":"NY","country":"United States"},"categories":[{"id":"4bf58dd8d48988d147941735","name":"Diner","pluralName":"Diners","shortName":"Diner","icon":{"prefix":"https:\/\/ss1.4sqi.net\/img\/categories_v2\/food\/diner_","suffix":".png"},"primary":true}],"verified":false,"stats":{"checkinsCount":12,"usersCount":2,"tipCount":1},"specials":{"count":0,"items":[]},"hereNow":{"count":0,"summary":"0 people here","groups":[]},"referralId":"v-1402168742"},{"id":"4bbcd8f6593fef3baeb50256","name":"Sears Appliance and Hardware Store","contact":{"phone":"7187768156","formattedPhone":"(718) 776-8156"},"location":{"address":"220-05 Hillside Avenue","lat":40.73036,"lng":-73.744069,"distance":21857,"postalCode":"11427","cc":"US","city":"Queens","state":"NY","country":"United States"},"categories":[{"id":"4bf58dd8d48988d112951735","name":"Hardware Store","pluralName":"Hardware Stores","shortName":"Hardware","icon":{"prefix":"https:\/\/ss1.4sqi.net\/img\/categories_v2\/shops\/hardware_","suffix":".png"},"primary":true}],"verified":true,"stats":{"checkinsCount":371,"usersCount":172,"tipCount":3},"url":"http:\/\/www.searshardwarestores.com\/locations\/queens-ny","specials":{"count":0,"items":[]},"hereNow":{"count":0,"summary":"0 people here","groups":[]},"storeId":"5133","referralId":"v-1402168742"},{"id":"4dced2aed4c065592f890519","name":"Sears Parts","contact":{},"location":{"address":"9-19 S Main St","lat":40.874382197438635,"lng":-74.08720025173426,"distance":20756,"postalCode":"07644","cc":"US","city":"Lodi","state":"NJ","country":"United States"},"categories":[{"id":"4bf58dd8d48988d124951735","name":"Automotive Shop","pluralName":"Automotive Shops","shortName":"Automotive","icon":{"prefix":"https:\/\/ss1.4sqi.net\/img\/categories_v2\/shops\/automotive_","suffix":".png"},"primary":true}],"verified":false,"stats":{"checkinsCount":7,"usersCount":7,"tipCount":0},"specials":{"count":0,"items":[]},"hereNow":{"count":0,"summary":"0 people here","groups":[]},"referralId":"v-1402168742"},{"id":"4f32eacae4b0a676eb669e57","name":"Sears Home Appliance Showroom","contact":{"phone":"9732496354","formattedPhone":"(973) 249-6354"},"location":{"address":"780 Rt. 3 West","lat":40.836767,"lng":-74.153194,"distance":19965,"postalCode":"07012","cc":"US","city":"Clifton","state":"NJ","country":"United States"},"categories":[{"id":"4bf58dd8d48988d112951735","name":"Hardware Store","pluralName":"Hardware Stores","shortName":"Hardware","icon":{"prefix":"https:\/\/ss1.4sqi.net\/img\/categories_v2\/shops\/hardware_","suffix":".png"},"primary":true}],"verified":true,"stats":{"checkinsCount":23,"usersCount":22,"tipCount":0},"url":"http:\/\/www.searshomeapplianceshowroom.com\/locations\/clifton-nj","specials":{"count":0,"items":[]},"hereNow":{"count":0,"summary":"0 people here","groups":[]},"storeId":"9668","referralId":"v-1402168742"},{"id":"4fef1521e4b0369bc80926d8","name":"Sears","contact":{},"location":{"address":"50 US Highway 46","lat":40.8897380859659,"lng":-74.2614818359333,"distance":30523,"postalCode":"07470","cc":"US","city":"Wayne","state":"NJ","country":"United States"},"categories":[{"id":"4bf58dd8d48988d1f6941735","name":"Department Store","pluralName":"Department Stores","shortName":"Department Store","icon":{"prefix":"https:\/\/ss1.4sqi.net\/img\/categories_v2\/shops\/departmentstore_","suffix":".png"},"primary":true}],"verified":false,"stats":{"checkinsCount":988,"usersCount":521,"tipCount":2},"url":"http:\/\/www.sears.com","specials":{"count":0,"items":[]},"hereNow":{"count":0,"summary":"0 people here","groups":[]},"referralId":"v-1402168742"},{"id":"500ac41de4b0a62ff467e84c","name":"Sears Optical","contact":{},"location":{"lat":40.89134101988378,"lng":-74.03898872575698,"distance":21551,"postalCode":"07601","cc":"US","city":"Hackensack","state":"NJ","country":"United States"},"categories":[{"id":"4d954afda243a5684865b473","name":"Optical Shop","pluralName":"Optical Shops","shortName":"Optical","icon":{"prefix":"https:\/\/ss1.4sqi.net\/img\/categories_v2\/building\/medical_opticalshop_","suffix":".png"},"primary":true}],"verified":false,"stats":{"checkinsCount":9,"usersCount":8,"tipCount":0},"specials":{"count":0,"items":[]},"hereNow":{"count":0,"summary":"0 people here","groups":[]},"referralId":"v-1402168742"},{"id":"4bb762d746d4a593f261c7c0","name":"Sears","contact":{"phone":"5168733700","formattedPhone":"(516) 873-3700","twitter":"sears"},"location":{"address":"1111 Franklin Ave","crossStreet":"at 11th St","lat":40.73133,"lng":-73.63628,"distance":30886,"postalCode":"11530","cc":"US","city":"Garden City","state":"NY","country":"United States"},"categories":[{"id":"4bf58dd8d48988d1f6941735","name":"Department Store","pluralName":"Department Stores","shortName":"Department Store","icon":{"prefix":"https:\/\/ss1.4sqi.net\/img\/categories_v2\/shops\/departmentstore_","suffix":".png"},"primary":true}],"verified":true,"stats":{"checkinsCount":1033,"usersCount":536,"tipCount":4},"url":"http:\/\/bit.ly\/sears4sq","specials":{"count":0,"items":[]},"hereNow":{"count":0,"summary":"0 people here","groups":[]},"storeId":"1004","referralId":"v-1402168742"},{"id":"51bb2d87498e4cfd4eb7d78b","name":"Sears Repair Center","contact":{},"location":{"lat":40.87691,"lng":-74.08682,"distance":21008,"cc":"US","city":"Lodi","state":"NJ","country":"United States"},"categories":[{"id":"4bf58dd8d48988d112951735","name":"Hardware Store","pluralName":"Hardware Stores","shortName":"Hardware","icon":{"prefix":"https:\/\/ss1.4sqi.net\/img\/categories_v2\/shops\/hardware_","suffix":".png"},"primary":true}],"verified":false,"stats":{"checkinsCount":1,"usersCount":1,"tipCount":0},"specials":{"count":0,"items":[]},"hereNow":{"count":0,"summary":"0 people here","groups":[]},"referralId":"v-1402168742"},{"id":"4b5b128ff964a52037e228e3","name":"Sears","contact":{"phone":"9735354500","formattedPhone":"(973) 535-4500","twitter":"sears"},"location":{"address":"112 Eisenhower Pkwy","crossStreet":"in Livingston Mall","lat":40.777712417448356,"lng":-74.353572430158,"distance":31051,"postalCode":"07039","cc":"US","city":"Livingston","state":"NJ","country":"United States"},"categories":[{"id":"4bf58dd8d48988d122951735","name":"Electronics Store","pluralName":"Electronics Stores","shortName":"Electronics","icon":{"prefix":"https:\/\/ss1.4sqi.net\/img\/categories_v2\/shops\/technology_","suffix":".png"},"primary":true}],"verified":true,"stats":{"checkinsCount":876,"usersCount":506,"tipCount":5},"url":"http:\/\/bit.ly\/Sears4sq","specials":{"count":0,"items":[]},"hereNow":{"count":0,"summary":"0 people here","groups":[]},"storeId":"1614","referralId":"v-1402168742"},{"id":"4b9bbc02f964a5202d1f36e3","name":"Sears Auto Center","contact":{"phone":"2014894451","formattedPhone":"(201) 489-4451","twitter":"searsauto"},"location":{"address":"516 Main St","lat":40.895219,"lng":-74.03966,"distance":21987,"postalCode":"07601","cc":"US","city":"Hackensack","state":"NJ","country":"United States"},"categories":[{"id":"4eb1c1623b7b52c0e1adc2ec","name":"Car Dealership","pluralName":"Car Dealerships","shortName":"Car Dealer","icon":{"prefix":"https:\/\/ss1.4sqi.net\/img\/categories_v2\/shops\/automotive_","suffix":".png"},"primary":true}],"verified":true,"stats":{"checkinsCount":128,"usersCount":101,"tipCount":4},"url":"http:\/\/t.co\/ckTNI9ym6m","specials":{"count":0,"items":[]},"hereNow":{"count":0,"summary":"0 people here","groups":[]},"storeId":"6854","referralId":"v-1402168742"},{"id":"4c87e038cf609eb07ab7f2b0","name":"Sears Outlet","contact":{"phone":"9733259072","formattedPhone":"(973) 325-9072"},"location":{"address":"495 Prospect Ave","lat":40.791316,"lng":-74.254728,"distance":23766,"postalCode":"07052","cc":"US","city":"West Orange","state":"NJ","country":"United States"},"categories":[{"id":"52f2ab2ebcbc57f1066b8b35","name":"Outlet Store","pluralName":"Outlet Stores","shortName":"Outlet Store","icon":{"prefix":"https:\/\/ss1.4sqi.net\/img\/categories_v2\/shops\/default_","suffix":".png"},"primary":true}],"verified":true,"stats":{"checkinsCount":121,"usersCount":95,"tipCount":0},"url":"http:\/\/www.searsoutlet.com","specials":{"count":0,"items":[]},"hereNow":{"count":0,"summary":"0 people here","groups":[]},"storeId":"5361","referralId":"v-1402168742"},{"id":"4c9237e01adc3704868636d1","name":"Sears Outlet","contact":{"phone":"9084900184","formattedPhone":"(908) 490-0184","twitter":"sears"},"location":{"address":"1701 US Highway 22","lat":40.61267007171251,"lng":-74.25392299517672,"distance":23544,"postalCode":"07069","cc":"US","city":"Plainfield","state":"NJ","country":"United States"},"categories":[{"id":"4bf58dd8d48988d1f2941735","name":"Sporting Goods Shop","pluralName":"Sporting Goods Shops","shortName":"Sporting Goods","icon":{"prefix":"https:\/\/ss1.4sqi.net\/img\/categories_v2\/shops\/sports_outdoors_","suffix":".png"},"primary":true}],"verified":true,"stats":{"checkinsCount":95,"usersCount":71,"tipCount":3},"url":"http:\/\/bit.ly\/Sears4sq","specials":{"count":0,"items":[]},"hereNow":{"count":0,"summary":"0 people here","groups":[]},"storeId":"5082","referralId":"v-1402168742"},{"id":"4ebd6fd92c5bf3359aa93891","name":"Sears Laundry","contact":{},"location":{"lat":40.781520374044995,"lng":-74.23663219063698,"distance":21924,"postalCode":"07052","cc":"US","city":"West Orange","state":"NJ","country":"United States"},"categories":[{"id":"4bf58dd8d48988d1fc941735","name":"Laundry Service","pluralName":"Laundry Services","shortName":"Laundry","icon":{"prefix":"https:\/\/ss1.4sqi.net\/img\/categories_v2\/shops\/laundry_","suffix":".png"},"primary":true}],"verified":false,"stats":{"checkinsCount":33,"usersCount":1,"tipCount":0},"specials":{"count":0,"items":[]},"hereNow":{"count":0,"summary":"0 people here","groups":[]},"referralId":"v-1402168742"},{"id":"4e145528a809548274aa8495","name":"Sears Outlet","contact":{},"location":{"lat":40.89634576,"lng":-74.07454648,"distance":22741,"cc":"US","city":"Rochelle Park","state":"NJ","country":"United States"},"categories":[{"id":"4bf58dd8d48988d122951735","name":"Electronics Store","pluralName":"Electronics Stores","shortName":"Electronics","icon":{"prefix":"https:\/\/ss1.4sqi.net\/img\/categories_v2\/shops\/technology_","suffix":".png"},"primary":true}],"verified":false,"stats":{"checkinsCount":8,"usersCount":3,"tipCount":0},"specials":{"count":0,"items":[]},"hereNow":{"count":0,"summary":"0 people here","groups":[]},"referralId":"v-1402168742"},{"id":"5001e8abe4b06441412cd644","name":"Sears","contact":{},"location":{"lat":40.77176034983462,"lng":-74.35310275776257,"distance":30836,"postalCode":"07039","cc":"US","city":"Livingston","state":"NJ","country":"United States"},"categories":[{"id":"4bf58dd8d48988d103951735","name":"Clothing Store","pluralName":"Clothing Stores","shortName":"Apparel","icon":{"prefix":"https:\/\/ss1.4sqi.net\/img\/categories_v2\/shops\/apparel_","suffix":".png"},"primary":true}],"verified":false,"stats":{"checkinsCount":26,"usersCount":16,"tipCount":0},"specials":{"count":0,"items":[]},"hereNow":{"count":0,"summary":"0 people here","groups":[]},"referralId":"v-1402168742"}]}}
